{
  "restaurants": [
    {
      "id": 1,
      "nom": "Mori Yoshida",
      "adresse": "65 Avenue de Breteuil, 75007 Paris",
      "type": "pâtisserie",
      "note": 4.9,
      "horaires": "Mer-Ven et week-end 10h-19h",
      "site": "https://moriyoshida.fr",
      "instagram": null,
      "photo": null,
      "quartier": "Invalides",
      "lat": 48.848,
      "lon": 2.312
    },
    {
      "id": 2,
      "nom": "Takumi pâtisserie",
      "adresse": "29 Rue des Pyramides, 75001 Paris",
      "type": "pâtisserie",
      "note": 4.5,
      "horaires": "Lun-Ven 9h-19h, Sam-Dim 10h-19h",
      "site": "https://www.takumi-patisserie.com",
      "instagram": null,
      "photo": null,
      "quartier": "Pyramides",
      "lat": 48.8662,
      "lon": 2.3341
    },
    {
      "id": 3,
      "nom": "Angelina",
      "adresse": "226 Rue de Rivoli, 75001 Paris",
      "type": "salon de thé",
      "note": 4.1,
      "horaires": "7h30-19h en semaine, 8h-19h30 week-end",
      "site": "https://www.angelina-paris.fr",
      "instagram": null,
      "photo": null,
      "quartier": "Louvre / Palais-Royal",
      "lat": 48.8654,
      "lon": 2.3295
    },
    {
      "id": 4,
      "nom": "Sweet Raviolis",
      "adresse": "178 Rue Montmartre, 75002 Paris",
      "type": "restaurant",
      "note": 4.8,
      "horaires": "Lun-Mar et Jeu-Ven 12h-15h30 / 18h-22h, Sam-Dim 12h-15h30 / 18h-22h30",
      "site": "https://www.sweetraviolis.com",
      "instagram": null,
      "photo": null,
      "quartier": "Rue Montmartre",
      "lat": 48.8711677,
      "lon": 2.343075
    },
    {
      "id": 5,
      "nom": "Petit Bao",
      "adresse": "116 Rue Saint-Denis, 75002 Paris",
      "type": "restaurant",
      "note": 4.5,
      "horaires": "Lun-Ven 12h-15h et 19h-23h, Sam-Dim 12h-16h et 17h-23h",
      "site": null,
      "instagram": null,
      "photo": null,
      "quartier": "Saint-Denis",
      "lat": 48.8663,
      "lon": 2.3518
    },
    {
      "id": 6,
      "nom": "Scoop me a cookie",
      "adresse": "38 Rue de Bretagne, 75003 Paris",
      "type": "biscuitier",
      "note": 4.6,
      "horaires": "Tous les jours 10h-20h",
      "site": "https://www.scoopmeacookie.com",
      "instagram": null,
      "photo": null,
      "quartier": "Marais",
      "lat": 48.8622,
      "lon": 2.3631
    },
    {
      "id": 7,
      "nom": "Boulom",
      "adresse": "181 Rue Ordener, 75018 Paris",
      "type": "restaurant",
      "note": 4.2,
      "horaires": "Lun-Ven 12h-00h, Sam-Dim 11h-17h et 19h30-00h",
      "site": "https://www.boulom.net",
      "instagram": null,
      "photo": null,
      "quartier": "Montmartre",
      "lat": 48.8921,
      "lon": 2.3442
    },
    {
      "id": 8,
      "nom": "La Grande Mosquée de Paris",
      "adresse": "39 Rue Geoffroy-Saint-Hilaire, 75005 Paris",
      "type": "salon de thé",
      "note": 4.4,
      "horaires": "Tous les jours 9h-00h",
      "site": "https://www.la-mosquee.com",
      "instagram": null,
      "photo": null,
      "quartier": "Jardin des Plantes",
      "lat": 48.8412,
      "lon": 2.3564
    }
  ]
}
